{"peak_name":"K2","peak_alt":8568.798828125,"peak_lon":76.51236109999998,"peak_lat":35.880972233333324,"rows":800,"cols":800,"aspect_z":0.182,"wind_dir":270,"snowline":5600.75439453125,"death_thres":8181.8515625,"colorscales":{"natural":[[0.0,"rgb(20,14,8)"],[0.08,"rgb(55,38,18)"],[0.16,"rgb(95,65,30)"],[0.25,"rgb(135,95,48)"],[0.34,"rgb(165,125,68)"],[0.43,"rgb(188,152,95)"],[0.52,"rgb(200,170,118)"],[0.61,"rgb(198,178,140)"],[0.7,"rgb(192,182,158)"],[0.78,"rgb(205,196,178)"],[0.86,"rgb(222,215,200)"],[0.93,"rgb(238,234,225)"],[1.0,"rgb(255,255,255)"]],"slope":[[0.0,"rgb(68,1,84)"],[0.15,"rgb(70,50,160)"],[0.3,"rgb(40,140,180)"],[0.5,"rgb(50,190,120)"],[0.65,"rgb(200,220,40)"],[0.8,"rgb(255,160,0)"],[1.0,"rgb(210,50,20)"]],"aspect":[[0.0,"rgb(120,50,180)"],[0.25,"rgb(220,180,20)"],[0.5,"rgb(60,200,80)"],[0.75,"rgb(20,160,180)"],[1.0,"rgb(120,50,180)"]],"curvature":[[0.0,"rgb(20,140,80)"],[0.3,"rgb(100,200,140)"],[0.5,"rgb(235,235,235)"],[0.7,"rgb(180,100,200)"],[1.0,"rgb(100,20,160)"]],"tri":[[0.0,"rgb(255,253,200)"],[0.25,"rgb(255,200,50)"],[0.5,"rgb(255,130,0)"],[0.75,"rgb(200,40,10)"],[1.0,"rgb(100,0,50)"]],"wind":[[0.0,"rgb(220,250,230)"],[0.3,"rgb(80,200,160)"],[0.6,"rgb(20,120,160)"],[1.0,"rgb(10,30,100)"]],"solar":[[0.0,"rgb(10,10,80)"],[0.25,"rgb(100,20,140)"],[0.5,"rgb(200,80,20)"],[0.75,"rgb(255,200,0)"],[1.0,"rgb(255,255,200)"]],"snow":[[0.0,"rgb(160,100,40)"],[0.45,"rgb(120,160,180)"],[0.7,"rgb(180,225,240)"],[0.85,"rgb(220,245,255)"],[1.0,"rgb(255,255,255)"]],"haz_none":[[0.0,"rgb(20,14,8)"],[0.08,"rgb(55,38,18)"],[0.16,"rgb(95,65,30)"],[0.25,"rgb(135,95,48)"],[0.34,"rgb(165,125,68)"],[0.43,"rgb(188,152,95)"],[0.52,"rgb(200,170,118)"],[0.61,"rgb(198,178,140)"],[0.7,"rgb(192,182,158)"],[0.78,"rgb(205,196,178)"],[0.86,"rgb(222,215,200)"],[0.93,"rgb(238,234,225)"],[1.0,"rgb(255,255,255)"]],"haz_avy":[[0.0,"rgb(20,14,8)"],[0.06559999999999999,"rgb(55,38,18)"],[0.13119999999999998,"rgb(95,65,30)"],[0.205,"rgb(135,95,48)"],[0.2788,"rgb(165,125,68)"],[0.35259999999999997,"rgb(188,152,95)"],[0.4264,"rgb(200,170,118)"],[0.5002,"rgb(198,178,140)"],[0.574,"rgb(192,182,158)"],[0.6396,"rgb(205,196,178)"],[0.7051999999999999,"rgb(222,215,200)"],[0.7626,"rgb(238,234,225)"],[0.82,"rgb(255,255,255)"],[0.83,"rgb(255,255,255)"],[0.87,"rgb(255,200,50)"],[1.0,"rgb(255,200,50)"]],"haz_serac":[[0.0,"rgb(20,14,8)"],[0.06559999999999999,"rgb(55,38,18)"],[0.13119999999999998,"rgb(95,65,30)"],[0.205,"rgb(135,95,48)"],[0.2788,"rgb(165,125,68)"],[0.35259999999999997,"rgb(188,152,95)"],[0.4264,"rgb(200,170,118)"],[0.5002,"rgb(198,178,140)"],[0.574,"rgb(192,182,158)"],[0.6396,"rgb(205,196,178)"],[0.7051999999999999,"rgb(222,215,200)"],[0.7626,"rgb(238,234,225)"],[0.82,"rgb(255,255,255)"],[0.83,"rgb(255,255,255)"],[0.87,"rgb(150,100,220)"],[1.0,"rgb(150,100,220)"]],"haz_death":[[0.0,"rgb(20,14,8)"],[0.06559999999999999,"rgb(55,38,18)"],[0.13119999999999998,"rgb(95,65,30)"],[0.205,"rgb(135,95,48)"],[0.2788,"rgb(165,125,68)"],[0.35259999999999997,"rgb(188,152,95)"],[0.4264,"rgb(200,170,118)"],[0.5002,"rgb(198,178,140)"],[0.574,"rgb(192,182,158)"],[0.6396,"rgb(205,196,178)"],[0.7051999999999999,"rgb(222,215,200)"],[0.7626,"rgb(238,234,225)"],[0.82,"rgb(255,255,255)"],[0.83,"rgb(255,255,255)"],[0.87,"rgb(200,60,60)"],[1.0,"rgb(200,60,60)"]],"haz_rockfall":[[0.0,"rgb(20,14,8)"],[0.06559999999999999,"rgb(55,38,18)"],[0.13119999999999998,"rgb(95,65,30)"],[0.205,"rgb(135,95,48)"],[0.2788,"rgb(165,125,68)"],[0.35259999999999997,"rgb(188,152,95)"],[0.4264,"rgb(200,170,118)"],[0.5002,"rgb(198,178,140)"],[0.574,"rgb(192,182,158)"],[0.6396,"rgb(205,196,178)"],[0.7051999999999999,"rgb(222,215,200)"],[0.7626,"rgb(238,234,225)"],[0.82,"rgb(255,255,255)"],[0.83,"rgb(255,255,255)"],[0.87,"rgb(180,120,30)"],[1.0,"rgb(180,120,30)"]],"haz_cliff":[[0.0,"rgb(20,14,8)"],[0.06559999999999999,"rgb(55,38,18)"],[0.13119999999999998,"rgb(95,65,30)"],[0.205,"rgb(135,95,48)"],[0.2788,"rgb(165,125,68)"],[0.35259999999999997,"rgb(188,152,95)"],[0.4264,"rgb(200,170,118)"],[0.5002,"rgb(198,178,140)"],[0.574,"rgb(192,182,158)"],[0.6396,"rgb(205,196,178)"],[0.7051999999999999,"rgb(222,215,200)"],[0.7626,"rgb(238,234,225)"],[0.82,"rgb(255,255,255)"],[0.83,"rgb(255,255,255)"],[0.87,"rgb(80,60,50)"],[1.0,"rgb(80,60,50)"]],"haz_jet":[[0.0,"rgb(20,14,8)"],[0.06559999999999999,"rgb(55,38,18)"],[0.13119999999999998,"rgb(95,65,30)"],[0.205,"rgb(135,95,48)"],[0.2788,"rgb(165,125,68)"],[0.35259999999999997,"rgb(188,152,95)"],[0.4264,"rgb(200,170,118)"],[0.5002,"rgb(198,178,140)"],[0.574,"rgb(192,182,158)"],[0.6396,"rgb(205,196,178)"],[0.7051999999999999,"rgb(222,215,200)"],[0.7626,"rgb(238,234,225)"],[0.82,"rgb(255,255,255)"],[0.83,"rgb(255,255,255)"],[0.87,"rgb(40,130,200)"],[1.0,"rgb(40,130,200)"]],"haz_snow":[[0.0,"rgb(20,14,8)"],[0.06559999999999999,"rgb(55,38,18)"],[0.13119999999999998,"rgb(95,65,30)"],[0.205,"rgb(135,95,48)"],[0.2788,"rgb(165,125,68)"],[0.35259999999999997,"rgb(188,152,95)"],[0.4264,"rgb(200,170,118)"],[0.5002,"rgb(198,178,140)"],[0.574,"rgb(192,182,158)"],[0.6396,"rgb(205,196,178)"],[0.7051999999999999,"rgb(222,215,200)"],[0.7626,"rgb(238,234,225)"],[0.82,"rgb(255,255,255)"],[0.83,"rgb(255,255,255)"],[0.87,"rgb(180,225,245)"],[1.0,"rgb(180,225,245)"]],"haz_all":[[0.0,"rgb(20,14,8)"],[0.06559999999999999,"rgb(55,38,18)"],[0.13119999999999998,"rgb(95,65,30)"],[0.205,"rgb(135,95,48)"],[0.2788,"rgb(165,125,68)"],[0.35259999999999997,"rgb(188,152,95)"],[0.4264,"rgb(200,170,118)"],[0.5002,"rgb(198,178,140)"],[0.574,"rgb(192,182,158)"],[0.6396,"rgb(205,196,178)"],[0.7051999999999999,"rgb(222,215,200)"],[0.7626,"rgb(238,234,225)"],[0.82,"rgb(255,255,255)"],[0.83,"rgb(255,255,255)"],[0.87,"rgb(220,100,40)"],[1.0,"rgb(220,100,40)"]]},"osm_peaks":[{"name":"K2","lat":35.8816528,"lon":76.5134668,"elev":8555.811146407403,"type":"peak"},{"name":"Gasherbrum I","lat":35.7246797,"lon":76.697623,"elev":7954.647156420124,"type":"peak"},{"name":"Broad Peak","lat":35.8136914,"lon":76.5655569,"elev":7951.226016091412,"type":"peak"},{"name":"Gasherbrum II","lat":35.7577323,"lon":76.6532687,"elev":7936.0690724160895,"type":"peak"},{"name":"Gasherbrum III","lat":35.759734,"lon":76.6419462,"elev":7895.520995420789,"type":"peak"},{"name":"Gasherbrum IV","lat":35.7616816,"lon":76.6163553,"elev":7877.80850392022,"type":"peak"},{"name":"Masherbrum","lat":35.6433789,"lon":76.3080963,"elev":7749.710060963104,"type":"peak"},{"name":"Gasherbrum II East","lat":35.7545946,"lon":76.6679536,"elev":7665.663499326156,"type":"peak"},{"name":"Chogolisa","lat":35.6129673,"lon":76.5739722,"elev":7571.0464727526605,"type":"peak"},{"name":"Skyang Kangri","lat":35.9240817,"lon":76.5645057,"elev":7489.3899013295195,"type":"peak"},{"name":"Sia Kangri","lat":35.6629548,"lon":76.761207,"elev":7364.1209853426935,"type":"peak"},{"name":"Broad Peak North","lat":35.8320887,"lon":76.5563467,"elev":7362.590177226824,"type":"peak"},{"name":"Skil Brum","lat":35.852521,"lon":76.427028,"elev":7329.7552682847045,"type":"peak"},{"name":"Baltoro Kangri II","lat":35.6382099,"lon":76.6720953,"elev":7293.812222066204,"type":"peak"},{"name":"Baltoro Kangri","lat":35.6456681,"lon":76.6656741,"elev":7270.8283183549875,"type":"peak"},{"name":"Baltoro Kangri III","lat":35.6323779,"lon":76.6805416,"elev":7243.891316660545,"type":"peak"},{"name":"Chongtar Kangri","lat":35.9168003,"lon":76.4282185,"elev":7237.7314362862035,"type":"peak"},{"name":"Baltoro Kangri V","lat":35.6305906,"lon":76.693282,"elev":7169.482523781556,"type":"peak"},{"name":"Summa Ri I","lat":35.8663639,"lon":76.4454848,"elev":7145.5121208550845,"type":"peak"},{"name":"Urdok I","lat":35.7047222,"lon":76.7291667,"elev":7133.224817101451,"type":"peak"},{"name":"Urdok II","lat":35.6879598,"lon":76.7459458,"elev":7073.995306230061,"type":"peak"},{"name":"Mt Hardinge","lat":35.632962,"lon":76.7895774,"elev":7024.433867905485,"type":"peak"},{"name":"Muztagh Tower","lat":35.8276607,"lon":76.360361,"elev":6961.026539210487,"type":"peak"},{"name":"Praqpa Kangri","lat":35.8299234,"lon":76.434174,"elev":6945.830062379035,"type":"peak"},{"name":"Snow Dome","lat":35.612839,"lon":76.5979685,"elev":6936.461573168739,"type":"peak"},{"name":"Gasherbrum I South","lat":35.7021557,"lon":76.692101,"elev":6922.8336779688625,"type":"peak"},{"name":"Urdok III","lat":35.6816856,"lon":76.7575601,"elev":6921.106752544918,"type":"peak"},{"name":"Gasherbrum V","lat":35.7296879,"lon":76.6137002,"elev":6908.431705971954,"type":"peak"},{"name":"Nakpo Kangri","lat":35.8052658,"lon":76.6487191,"elev":6873.586287346464,"type":"peak"},{"name":"Gasherbrum VI","lat":35.7087518,"lon":76.6322231,"elev":6839.75467126183,"type":"peak"},{"name":"Kaberi Kangri","lat":35.5923396,"lon":76.6051767,"elev":6799.586709707897,"type":"peak"},{"name":"Kharut Kangri","lat":35.8457889,"lon":76.5877852,"elev":6744.855791211686,"type":"peak"},{"name":"Mandu Kangri","lat":35.6483691,"lon":76.2772608,"elev":6722.8069786633605,"type":"peak"},{"name":"Durbin Kangri I","lat":35.9961091,"lon":76.7665207,"elev":6721.080429481432,"type":"peak"},{"name":"Gasherbrum VII","lat":35.7387902,"lon":76.6006208,"elev":6709.407212187814,"type":"peak"},{"name":"Khumil Gri","lat":35.6417565,"lon":76.5457087,"elev":6698.022252655279,"type":"peak"},{"name":"Angelus","lat":35.8490731,"lon":76.4911749,"elev":6687.063197042929,"type":"peak"},{"name":"Gondogoro Ri","lat":35.6736135,"lon":76.4063072,"elev":6592.6398447090405,"type":"peak"},{"name":"Twins","lat":35.7371968,"lon":76.5826681,"elev":6345.361482965177,"type":"peak"},{"name":"Biale Kangri","lat":35.8021171,"lon":76.2377357,"elev":6311.411357445606,"type":"peak"},{"name":"Biarchedi","lat":35.6765768,"lon":76.3942072,"elev":6216.887802538259,"type":"peak"},{"name":"Marble Peak","lat":35.7739158,"lon":76.4855597,"elev":5667.794833278585,"type":"peak"},{"name":"Laila Peak","lat":35.5939072,"lon":76.4125994,"elev":5616.908407969888,"type":"peak"},{"name":"Mitre Peak","lat":35.7264572,"lon":76.4983439,"elev":5236.2125181606225,"type":"peak"},{"name":"Lobsang Spire","lat":35.7698126,"lon":76.2876704,"elev":5224.183614317348,"type":"peak"}],"osm_villages":[],"osm_camps":[{"name":"Urdokas","lat":35.7275132,"lon":76.2850006,"elev":4060.9822905995134,"type":"camp_site"},{"name":"Khuispang","lat":35.6290818,"lon":76.4340665,"elev":4654.3460028731815,"type":"camp_site"},{"name":"Ali Camp","lat":35.665094,"lon":76.5119764,"elev":4938.833797900734,"type":"camp_site"},{"name":"Gore II","lat":35.7442615,"lon":76.3981821,"elev":4294.214442053787,"type":"camp_site"},{"name":"Gore I","lat":35.7414094,"lon":76.3530754,"elev":4185.554476040291,"type":"camp_site"},{"name":"K2 Base Camp","lat":35.8345446,"lon":76.509271,"elev":4957.661674831009,"type":"camp_site"},{"name":"Broad Peak Base Camp","lat":35.8043896,"lon":76.5171271,"elev":4816.613328445602,"type":"camp_site"},{"name":"Hongliutan 1","lat":36.1278227,"lon":76.6045522,"elev":3936.6182423861546,"type":"camp_site"},{"name":"\u7ea2\u67f3\u6ee92","lat":36.103934,"lon":76.5054758,"elev":3859.0741022618217,"type":"camp_site"},{"name":"\u7ea2\u67f3\u6ee93","lat":36.1365636,"lon":76.4384261,"elev":3799.9592099831434,"type":"camp_site"},{"name":"Hongliutan 4","lat":36.1522382,"lon":76.4107493,"elev":3779.52940593896,"type":"camp_site"},{"name":"Hongliutan 5","lat":36.1118223,"lon":76.4108482,"elev":3831.876353429966,"type":"camp_site"},{"name":"Yinhongtan","lat":36.0800864,"lon":76.413154,"elev":3870.444210069869,"type":"camp_site"},{"name":"\u5c0f\u8349\u539f","lat":35.8181525,"lon":76.78047,"elev":4322.187529002442,"type":"camp_site"},{"name":"Khorbutse Camp","lat":35.7157909,"lon":76.2327422,"elev":3845.4673433320922,"type":"camp_site"},{"name":"Camp 1","lat":35.8660027,"lon":76.5360937,"elev":5996.614839127107,"type":"camp_site"},{"name":"Camp 2","lat":35.8684937,"lon":76.5329501,"elev":6419.925846138631,"type":"camp_site"},{"name":"Camp 3","lat":35.872406,"lon":76.5316412,"elev":6905.2772544958,"type":"camp_site"},{"name":"Russian Muztagh Tower Expedition - Base Camp","lat":35.7870224,"lon":76.40754,"elev":4605.327798370208,"type":"camp_site"},{"name":"Gondogoro La Pass","lat":35.6524478,"lon":76.4755739,"elev":5580.4614767867515,"type":"camp_site"}],"peak_bands":{"peaks_all":[{"name":"K2","lat":35.8816528,"lon":76.5134668,"elev":8555.811146407403,"type":"peak"},{"name":"Gasherbrum I","lat":35.7246797,"lon":76.697623,"elev":7954.647156420124,"type":"peak"},{"name":"Broad Peak","lat":35.8136914,"lon":76.5655569,"elev":7951.226016091412,"type":"peak"},{"name":"Gasherbrum II","lat":35.7577323,"lon":76.6532687,"elev":7936.0690724160895,"type":"peak"},{"name":"Gasherbrum III","lat":35.759734,"lon":76.6419462,"elev":7895.520995420789,"type":"peak"},{"name":"Gasherbrum IV","lat":35.7616816,"lon":76.6163553,"elev":7877.80850392022,"type":"peak"},{"name":"Masherbrum","lat":35.6433789,"lon":76.3080963,"elev":7749.710060963104,"type":"peak"},{"name":"Gasherbrum II East","lat":35.7545946,"lon":76.6679536,"elev":7665.663499326156,"type":"peak"},{"name":"Chogolisa","lat":35.6129673,"lon":76.5739722,"elev":7571.0464727526605,"type":"peak"},{"name":"Skyang Kangri","lat":35.9240817,"lon":76.5645057,"elev":7489.3899013295195,"type":"peak"},{"name":"Sia Kangri","lat":35.6629548,"lon":76.761207,"elev":7364.1209853426935,"type":"peak"},{"name":"Broad Peak North","lat":35.8320887,"lon":76.5563467,"elev":7362.590177226824,"type":"peak"},{"name":"Skil Brum","lat":35.852521,"lon":76.427028,"elev":7329.7552682847045,"type":"peak"},{"name":"Baltoro Kangri II","lat":35.6382099,"lon":76.6720953,"elev":7293.812222066204,"type":"peak"},{"name":"Baltoro Kangri","lat":35.6456681,"lon":76.6656741,"elev":7270.8283183549875,"type":"peak"},{"name":"Baltoro Kangri III","lat":35.6323779,"lon":76.6805416,"elev":7243.891316660545,"type":"peak"},{"name":"Chongtar Kangri","lat":35.9168003,"lon":76.4282185,"elev":7237.7314362862035,"type":"peak"},{"name":"Baltoro Kangri V","lat":35.6305906,"lon":76.693282,"elev":7169.482523781556,"type":"peak"},{"name":"Summa Ri I","lat":35.8663639,"lon":76.4454848,"elev":7145.5121208550845,"type":"peak"},{"name":"Urdok I","lat":35.7047222,"lon":76.7291667,"elev":7133.224817101451,"type":"peak"},{"name":"Urdok II","lat":35.6879598,"lon":76.7459458,"elev":7073.995306230061,"type":"peak"},{"name":"Mt Hardinge","lat":35.632962,"lon":76.7895774,"elev":7024.433867905485,"type":"peak"},{"name":"Muztagh Tower","lat":35.8276607,"lon":76.360361,"elev":6961.026539210487,"type":"peak"},{"name":"Praqpa Kangri","lat":35.8299234,"lon":76.434174,"elev":6945.830062379035,"type":"peak"},{"name":"Snow Dome","lat":35.612839,"lon":76.5979685,"elev":6936.461573168739,"type":"peak"},{"name":"Gasherbrum I South","lat":35.7021557,"lon":76.692101,"elev":6922.8336779688625,"type":"peak"},{"name":"Urdok III","lat":35.6816856,"lon":76.7575601,"elev":6921.106752544918,"type":"peak"},{"name":"Gasherbrum V","lat":35.7296879,"lon":76.6137002,"elev":6908.431705971954,"type":"peak"},{"name":"Nakpo Kangri","lat":35.8052658,"lon":76.6487191,"elev":6873.586287346464,"type":"peak"},{"name":"Gasherbrum VI","lat":35.7087518,"lon":76.6322231,"elev":6839.75467126183,"type":"peak"},{"name":"Kaberi Kangri","lat":35.5923396,"lon":76.6051767,"elev":6799.586709707897,"type":"peak"},{"name":"Kharut Kangri","lat":35.8457889,"lon":76.5877852,"elev":6744.855791211686,"type":"peak"},{"name":"Mandu Kangri","lat":35.6483691,"lon":76.2772608,"elev":6722.8069786633605,"type":"peak"},{"name":"Durbin Kangri I","lat":35.9961091,"lon":76.7665207,"elev":6721.080429481432,"type":"peak"},{"name":"Gasherbrum VII","lat":35.7387902,"lon":76.6006208,"elev":6709.407212187814,"type":"peak"},{"name":"Khumil Gri","lat":35.6417565,"lon":76.5457087,"elev":6698.022252655279,"type":"peak"},{"name":"Angelus","lat":35.8490731,"lon":76.4911749,"elev":6687.063197042929,"type":"peak"},{"name":"Gondogoro Ri","lat":35.6736135,"lon":76.4063072,"elev":6592.6398447090405,"type":"peak"},{"name":"Twins","lat":35.7371968,"lon":76.5826681,"elev":6345.361482965177,"type":"peak"},{"name":"Biale Kangri","lat":35.8021171,"lon":76.2377357,"elev":6311.411357445606,"type":"peak"},{"name":"Biarchedi","lat":35.6765768,"lon":76.3942072,"elev":6216.887802538259,"type":"peak"},{"name":"Marble Peak","lat":35.7739158,"lon":76.4855597,"elev":5667.794833278585,"type":"peak"},{"name":"Laila Peak","lat":35.5939072,"lon":76.4125994,"elev":5616.908407969888,"type":"peak"},{"name":"Mitre Peak","lat":35.7264572,"lon":76.4983439,"elev":5236.2125181606225,"type":"peak"},{"name":"Lobsang Spire","lat":35.7698126,"lon":76.2876704,"elev":5224.183614317348,"type":"peak"}],"peaks_4k":[{"name":"K2","lat":35.8816528,"lon":76.5134668,"elev":8555.811146407403,"type":"peak"},{"name":"Gasherbrum I","lat":35.7246797,"lon":76.697623,"elev":7954.647156420124,"type":"peak"},{"name":"Broad Peak","lat":35.8136914,"lon":76.5655569,"elev":7951.226016091412,"type":"peak"},{"name":"Gasherbrum II","lat":35.7577323,"lon":76.6532687,"elev":7936.0690724160895,"type":"peak"},{"name":"Gasherbrum III","lat":35.759734,"lon":76.6419462,"elev":7895.520995420789,"type":"peak"},{"name":"Gasherbrum IV","lat":35.7616816,"lon":76.6163553,"elev":7877.80850392022,"type":"peak"},{"name":"Masherbrum","lat":35.6433789,"lon":76.3080963,"elev":7749.710060963104,"type":"peak"},{"name":"Gasherbrum II East","lat":35.7545946,"lon":76.6679536,"elev":7665.663499326156,"type":"peak"},{"name":"Chogolisa","lat":35.6129673,"lon":76.5739722,"elev":7571.0464727526605,"type":"peak"},{"name":"Skyang Kangri","lat":35.9240817,"lon":76.5645057,"elev":7489.3899013295195,"type":"peak"},{"name":"Sia Kangri","lat":35.6629548,"lon":76.761207,"elev":7364.1209853426935,"type":"peak"},{"name":"Broad Peak North","lat":35.8320887,"lon":76.5563467,"elev":7362.590177226824,"type":"peak"},{"name":"Skil Brum","lat":35.852521,"lon":76.427028,"elev":7329.7552682847045,"type":"peak"},{"name":"Baltoro Kangri II","lat":35.6382099,"lon":76.6720953,"elev":7293.812222066204,"type":"peak"},{"name":"Baltoro Kangri","lat":35.6456681,"lon":76.6656741,"elev":7270.8283183549875,"type":"peak"},{"name":"Baltoro Kangri III","lat":35.6323779,"lon":76.6805416,"elev":7243.891316660545,"type":"peak"},{"name":"Chongtar Kangri","lat":35.9168003,"lon":76.4282185,"elev":7237.7314362862035,"type":"peak"},{"name":"Baltoro Kangri V","lat":35.6305906,"lon":76.693282,"elev":7169.482523781556,"type":"peak"},{"name":"Summa Ri I","lat":35.8663639,"lon":76.4454848,"elev":7145.5121208550845,"type":"peak"},{"name":"Urdok I","lat":35.7047222,"lon":76.7291667,"elev":7133.224817101451,"type":"peak"},{"name":"Urdok II","lat":35.6879598,"lon":76.7459458,"elev":7073.995306230061,"type":"peak"},{"name":"Mt Hardinge","lat":35.632962,"lon":76.7895774,"elev":7024.433867905485,"type":"peak"},{"name":"Muztagh Tower","lat":35.8276607,"lon":76.360361,"elev":6961.026539210487,"type":"peak"},{"name":"Praqpa Kangri","lat":35.8299234,"lon":76.434174,"elev":6945.830062379035,"type":"peak"},{"name":"Snow Dome","lat":35.612839,"lon":76.5979685,"elev":6936.461573168739,"type":"peak"},{"name":"Gasherbrum I South","lat":35.7021557,"lon":76.692101,"elev":6922.8336779688625,"type":"peak"},{"name":"Urdok III","lat":35.6816856,"lon":76.7575601,"elev":6921.106752544918,"type":"peak"},{"name":"Gasherbrum V","lat":35.7296879,"lon":76.6137002,"elev":6908.431705971954,"type":"peak"},{"name":"Nakpo Kangri","lat":35.8052658,"lon":76.6487191,"elev":6873.586287346464,"type":"peak"},{"name":"Gasherbrum VI","lat":35.7087518,"lon":76.6322231,"elev":6839.75467126183,"type":"peak"},{"name":"Kaberi Kangri","lat":35.5923396,"lon":76.6051767,"elev":6799.586709707897,"type":"peak"},{"name":"Kharut Kangri","lat":35.8457889,"lon":76.5877852,"elev":6744.855791211686,"type":"peak"},{"name":"Mandu Kangri","lat":35.6483691,"lon":76.2772608,"elev":6722.8069786633605,"type":"peak"},{"name":"Durbin Kangri I","lat":35.9961091,"lon":76.7665207,"elev":6721.080429481432,"type":"peak"},{"name":"Gasherbrum VII","lat":35.7387902,"lon":76.6006208,"elev":6709.407212187814,"type":"peak"},{"name":"Khumil Gri","lat":35.6417565,"lon":76.5457087,"elev":6698.022252655279,"type":"peak"},{"name":"Angelus","lat":35.8490731,"lon":76.4911749,"elev":6687.063197042929,"type":"peak"},{"name":"Gondogoro Ri","lat":35.6736135,"lon":76.4063072,"elev":6592.6398447090405,"type":"peak"},{"name":"Twins","lat":35.7371968,"lon":76.5826681,"elev":6345.361482965177,"type":"peak"},{"name":"Biale Kangri","lat":35.8021171,"lon":76.2377357,"elev":6311.411357445606,"type":"peak"},{"name":"Biarchedi","lat":35.6765768,"lon":76.3942072,"elev":6216.887802538259,"type":"peak"},{"name":"Marble Peak","lat":35.7739158,"lon":76.4855597,"elev":5667.794833278585,"type":"peak"},{"name":"Laila Peak","lat":35.5939072,"lon":76.4125994,"elev":5616.908407969888,"type":"peak"},{"name":"Mitre Peak","lat":35.7264572,"lon":76.4983439,"elev":5236.2125181606225,"type":"peak"},{"name":"Lobsang Spire","lat":35.7698126,"lon":76.2876704,"elev":5224.183614317348,"type":"peak"}],"peaks_5k":[{"name":"K2","lat":35.8816528,"lon":76.5134668,"elev":8555.811146407403,"type":"peak"},{"name":"Gasherbrum I","lat":35.7246797,"lon":76.697623,"elev":7954.647156420124,"type":"peak"},{"name":"Broad Peak","lat":35.8136914,"lon":76.5655569,"elev":7951.226016091412,"type":"peak"},{"name":"Gasherbrum II","lat":35.7577323,"lon":76.6532687,"elev":7936.0690724160895,"type":"peak"},{"name":"Gasherbrum III","lat":35.759734,"lon":76.6419462,"elev":7895.520995420789,"type":"peak"},{"name":"Gasherbrum IV","lat":35.7616816,"lon":76.6163553,"elev":7877.80850392022,"type":"peak"},{"name":"Masherbrum","lat":35.6433789,"lon":76.3080963,"elev":7749.710060963104,"type":"peak"},{"name":"Gasherbrum II East","lat":35.7545946,"lon":76.6679536,"elev":7665.663499326156,"type":"peak"},{"name":"Chogolisa","lat":35.6129673,"lon":76.5739722,"elev":7571.0464727526605,"type":"peak"},{"name":"Skyang Kangri","lat":35.9240817,"lon":76.5645057,"elev":7489.3899013295195,"type":"peak"},{"name":"Sia Kangri","lat":35.6629548,"lon":76.761207,"elev":7364.1209853426935,"type":"peak"},{"name":"Broad Peak North","lat":35.8320887,"lon":76.5563467,"elev":7362.590177226824,"type":"peak"},{"name":"Skil Brum","lat":35.852521,"lon":76.427028,"elev":7329.7552682847045,"type":"peak"},{"name":"Baltoro Kangri II","lat":35.6382099,"lon":76.6720953,"elev":7293.812222066204,"type":"peak"},{"name":"Baltoro Kangri","lat":35.6456681,"lon":76.6656741,"elev":7270.8283183549875,"type":"peak"},{"name":"Baltoro Kangri III","lat":35.6323779,"lon":76.6805416,"elev":7243.891316660545,"type":"peak"},{"name":"Chongtar Kangri","lat":35.9168003,"lon":76.4282185,"elev":7237.7314362862035,"type":"peak"},{"name":"Baltoro Kangri V","lat":35.6305906,"lon":76.693282,"elev":7169.482523781556,"type":"peak"},{"name":"Summa Ri I","lat":35.8663639,"lon":76.4454848,"elev":7145.5121208550845,"type":"peak"},{"name":"Urdok I","lat":35.7047222,"lon":76.7291667,"elev":7133.224817101451,"type":"peak"},{"name":"Urdok II","lat":35.6879598,"lon":76.7459458,"elev":7073.995306230061,"type":"peak"},{"name":"Mt Hardinge","lat":35.632962,"lon":76.7895774,"elev":7024.433867905485,"type":"peak"},{"name":"Muztagh Tower","lat":35.8276607,"lon":76.360361,"elev":6961.026539210487,"type":"peak"},{"name":"Praqpa Kangri","lat":35.8299234,"lon":76.434174,"elev":6945.830062379035,"type":"peak"},{"name":"Snow Dome","lat":35.612839,"lon":76.5979685,"elev":6936.461573168739,"type":"peak"},{"name":"Gasherbrum I South","lat":35.7021557,"lon":76.692101,"elev":6922.8336779688625,"type":"peak"},{"name":"Urdok III","lat":35.6816856,"lon":76.7575601,"elev":6921.106752544918,"type":"peak"},{"name":"Gasherbrum V","lat":35.7296879,"lon":76.6137002,"elev":6908.431705971954,"type":"peak"},{"name":"Nakpo Kangri","lat":35.8052658,"lon":76.6487191,"elev":6873.586287346464,"type":"peak"},{"name":"Gasherbrum VI","lat":35.7087518,"lon":76.6322231,"elev":6839.75467126183,"type":"peak"},{"name":"Kaberi Kangri","lat":35.5923396,"lon":76.6051767,"elev":6799.586709707897,"type":"peak"},{"name":"Kharut Kangri","lat":35.8457889,"lon":76.5877852,"elev":6744.855791211686,"type":"peak"},{"name":"Mandu Kangri","lat":35.6483691,"lon":76.2772608,"elev":6722.8069786633605,"type":"peak"},{"name":"Durbin Kangri I","lat":35.9961091,"lon":76.7665207,"elev":6721.080429481432,"type":"peak"},{"name":"Gasherbrum VII","lat":35.7387902,"lon":76.6006208,"elev":6709.407212187814,"type":"peak"},{"name":"Khumil Gri","lat":35.6417565,"lon":76.5457087,"elev":6698.022252655279,"type":"peak"},{"name":"Angelus","lat":35.8490731,"lon":76.4911749,"elev":6687.063197042929,"type":"peak"},{"name":"Gondogoro Ri","lat":35.6736135,"lon":76.4063072,"elev":6592.6398447090405,"type":"peak"},{"name":"Twins","lat":35.7371968,"lon":76.5826681,"elev":6345.361482965177,"type":"peak"},{"name":"Biale Kangri","lat":35.8021171,"lon":76.2377357,"elev":6311.411357445606,"type":"peak"},{"name":"Biarchedi","lat":35.6765768,"lon":76.3942072,"elev":6216.887802538259,"type":"peak"},{"name":"Marble Peak","lat":35.7739158,"lon":76.4855597,"elev":5667.794833278585,"type":"peak"},{"name":"Laila Peak","lat":35.5939072,"lon":76.4125994,"elev":5616.908407969888,"type":"peak"},{"name":"Mitre Peak","lat":35.7264572,"lon":76.4983439,"elev":5236.2125181606225,"type":"peak"},{"name":"Lobsang Spire","lat":35.7698126,"lon":76.2876704,"elev":5224.183614317348,"type":"peak"}],"peaks_6k":[{"name":"K2","lat":35.8816528,"lon":76.5134668,"elev":8555.811146407403,"type":"peak"},{"name":"Gasherbrum I","lat":35.7246797,"lon":76.697623,"elev":7954.647156420124,"type":"peak"},{"name":"Broad Peak","lat":35.8136914,"lon":76.5655569,"elev":7951.226016091412,"type":"peak"},{"name":"Gasherbrum II","lat":35.7577323,"lon":76.6532687,"elev":7936.0690724160895,"type":"peak"},{"name":"Gasherbrum III","lat":35.759734,"lon":76.6419462,"elev":7895.520995420789,"type":"peak"},{"name":"Gasherbrum IV","lat":35.7616816,"lon":76.6163553,"elev":7877.80850392022,"type":"peak"},{"name":"Masherbrum","lat":35.6433789,"lon":76.3080963,"elev":7749.710060963104,"type":"peak"},{"name":"Gasherbrum II East","lat":35.7545946,"lon":76.6679536,"elev":7665.663499326156,"type":"peak"},{"name":"Chogolisa","lat":35.6129673,"lon":76.5739722,"elev":7571.0464727526605,"type":"peak"},{"name":"Skyang Kangri","lat":35.9240817,"lon":76.5645057,"elev":7489.3899013295195,"type":"peak"},{"name":"Sia Kangri","lat":35.6629548,"lon":76.761207,"elev":7364.1209853426935,"type":"peak"},{"name":"Broad Peak North","lat":35.8320887,"lon":76.5563467,"elev":7362.590177226824,"type":"peak"},{"name":"Skil Brum","lat":35.852521,"lon":76.427028,"elev":7329.7552682847045,"type":"peak"},{"name":"Baltoro Kangri II","lat":35.6382099,"lon":76.6720953,"elev":7293.812222066204,"type":"peak"},{"name":"Baltoro Kangri","lat":35.6456681,"lon":76.6656741,"elev":7270.8283183549875,"type":"peak"},{"name":"Baltoro Kangri III","lat":35.6323779,"lon":76.6805416,"elev":7243.891316660545,"type":"peak"},{"name":"Chongtar Kangri","lat":35.9168003,"lon":76.4282185,"elev":7237.7314362862035,"type":"peak"},{"name":"Baltoro Kangri V","lat":35.6305906,"lon":76.693282,"elev":7169.482523781556,"type":"peak"},{"name":"Summa Ri I","lat":35.8663639,"lon":76.4454848,"elev":7145.5121208550845,"type":"peak"},{"name":"Urdok I","lat":35.7047222,"lon":76.7291667,"elev":7133.224817101451,"type":"peak"},{"name":"Urdok II","lat":35.6879598,"lon":76.7459458,"elev":7073.995306230061,"type":"peak"},{"name":"Mt Hardinge","lat":35.632962,"lon":76.7895774,"elev":7024.433867905485,"type":"peak"},{"name":"Muztagh Tower","lat":35.8276607,"lon":76.360361,"elev":6961.026539210487,"type":"peak"},{"name":"Praqpa Kangri","lat":35.8299234,"lon":76.434174,"elev":6945.830062379035,"type":"peak"},{"name":"Snow Dome","lat":35.612839,"lon":76.5979685,"elev":6936.461573168739,"type":"peak"},{"name":"Gasherbrum I South","lat":35.7021557,"lon":76.692101,"elev":6922.8336779688625,"type":"peak"},{"name":"Urdok III","lat":35.6816856,"lon":76.7575601,"elev":6921.106752544918,"type":"peak"},{"name":"Gasherbrum V","lat":35.7296879,"lon":76.6137002,"elev":6908.431705971954,"type":"peak"},{"name":"Nakpo Kangri","lat":35.8052658,"lon":76.6487191,"elev":6873.586287346464,"type":"peak"},{"name":"Gasherbrum VI","lat":35.7087518,"lon":76.6322231,"elev":6839.75467126183,"type":"peak"},{"name":"Kaberi Kangri","lat":35.5923396,"lon":76.6051767,"elev":6799.586709707897,"type":"peak"},{"name":"Kharut Kangri","lat":35.8457889,"lon":76.5877852,"elev":6744.855791211686,"type":"peak"},{"name":"Mandu Kangri","lat":35.6483691,"lon":76.2772608,"elev":6722.8069786633605,"type":"peak"},{"name":"Durbin Kangri I","lat":35.9961091,"lon":76.7665207,"elev":6721.080429481432,"type":"peak"},{"name":"Gasherbrum VII","lat":35.7387902,"lon":76.6006208,"elev":6709.407212187814,"type":"peak"},{"name":"Khumil Gri","lat":35.6417565,"lon":76.5457087,"elev":6698.022252655279,"type":"peak"},{"name":"Angelus","lat":35.8490731,"lon":76.4911749,"elev":6687.063197042929,"type":"peak"},{"name":"Gondogoro Ri","lat":35.6736135,"lon":76.4063072,"elev":6592.6398447090405,"type":"peak"},{"name":"Twins","lat":35.7371968,"lon":76.5826681,"elev":6345.361482965177,"type":"peak"},{"name":"Biale Kangri","lat":35.8021171,"lon":76.2377357,"elev":6311.411357445606,"type":"peak"},{"name":"Biarchedi","lat":35.6765768,"lon":76.3942072,"elev":6216.887802538259,"type":"peak"}],"peaks_7k":[{"name":"K2","lat":35.8816528,"lon":76.5134668,"elev":8555.811146407403,"type":"peak"},{"name":"Gasherbrum I","lat":35.7246797,"lon":76.697623,"elev":7954.647156420124,"type":"peak"},{"name":"Broad Peak","lat":35.8136914,"lon":76.5655569,"elev":7951.226016091412,"type":"peak"},{"name":"Gasherbrum II","lat":35.7577323,"lon":76.6532687,"elev":7936.0690724160895,"type":"peak"},{"name":"Gasherbrum III","lat":35.759734,"lon":76.6419462,"elev":7895.520995420789,"type":"peak"},{"name":"Gasherbrum IV","lat":35.7616816,"lon":76.6163553,"elev":7877.80850392022,"type":"peak"},{"name":"Masherbrum","lat":35.6433789,"lon":76.3080963,"elev":7749.710060963104,"type":"peak"},{"name":"Gasherbrum II East","lat":35.7545946,"lon":76.6679536,"elev":7665.663499326156,"type":"peak"},{"name":"Chogolisa","lat":35.6129673,"lon":76.5739722,"elev":7571.0464727526605,"type":"peak"},{"name":"Skyang Kangri","lat":35.9240817,"lon":76.5645057,"elev":7489.3899013295195,"type":"peak"},{"name":"Sia Kangri","lat":35.6629548,"lon":76.761207,"elev":7364.1209853426935,"type":"peak"},{"name":"Broad Peak North","lat":35.8320887,"lon":76.5563467,"elev":7362.590177226824,"type":"peak"},{"name":"Skil Brum","lat":35.852521,"lon":76.427028,"elev":7329.7552682847045,"type":"peak"},{"name":"Baltoro Kangri II","lat":35.6382099,"lon":76.6720953,"elev":7293.812222066204,"type":"peak"},{"name":"Baltoro Kangri","lat":35.6456681,"lon":76.6656741,"elev":7270.8283183549875,"type":"peak"},{"name":"Baltoro Kangri III","lat":35.6323779,"lon":76.6805416,"elev":7243.891316660545,"type":"peak"},{"name":"Chongtar Kangri","lat":35.9168003,"lon":76.4282185,"elev":7237.7314362862035,"type":"peak"},{"name":"Baltoro Kangri V","lat":35.6305906,"lon":76.693282,"elev":7169.482523781556,"type":"peak"},{"name":"Summa Ri I","lat":35.8663639,"lon":76.4454848,"elev":7145.5121208550845,"type":"peak"},{"name":"Urdok I","lat":35.7047222,"lon":76.7291667,"elev":7133.224817101451,"type":"peak"},{"name":"Urdok II","lat":35.6879598,"lon":76.7459458,"elev":7073.995306230061,"type":"peak"},{"name":"Mt Hardinge","lat":35.632962,"lon":76.7895774,"elev":7024.433867905485,"type":"peak"}],"peaks_8k":[{"name":"K2","lat":35.8816528,"lon":76.5134668,"elev":8555.811146407403,"type":"peak"}]}}